{
"type": "FeatureCollection",
"name": "stops",
"crs": { "type": "name", "properties": { "name": "urn:ogc:def:crs:OGC:1.3:CRS84" } },
"features": [
{ "type": "Feature", "properties": { "stop_name": "Commercial-Broadway", "Direction": "Outbound" }, "geometry": { "type": "Point", "coordinates": [ -123.067736299282132, 49.262575935740571 ] } },
{ "type": "Feature", "properties": { "stop_name": "Commercial-Broadway", "Direction": "Inbound" }, "geometry": { "type": "Point", "coordinates": [ -123.06766001498579, 49.262662986369442 ] } },
{ "type": "Feature", "properties": { "stop_name": "Lougheed", "Direction": "Outbound" }, "geometry": { "type": "Point", "coordinates": [ -122.896666452753848, 49.248201585165553 ] } },
{ "type": "Feature", "properties": { "stop_name": "Lougheed", "Direction": "Inbound" }, "geometry": { "type": "Point", "coordinates": [ -122.896565470886017, 49.248277499699782 ] } },
{ "type": "Feature", "properties": { "stop_name": "Emily Carr", "Direction": "Westbound" }, "geometry": { "type": "Point", "coordinates": [ -123.0950135842469, 49.267561065012067 ] } },
{ "type": "Feature", "properties": { "stop_name": "Emily Carr", "Direction": "Eastbound" }, "geometry": { "type": "Point", "coordinates": [ -123.094913452586894, 49.267495703193731 ] } },
{ "type": "Feature", "properties": { "stop_name": "Mount Pleasant", "Direction": "Westbound" }, "geometry": { "type": "Point", "coordinates": [ -123.101255959536587, 49.262948449447528 ] } },
{ "type": "Feature", "properties": { "stop_name": "Mount Pleasant", "Direction": "Eastbound" }, "geometry": { "type": "Point", "coordinates": [ -123.101258819246496, 49.262852440388386 ] } },
{ "type": "Feature", "properties": { "stop_name": "City Hall", "Direction": "Westbound" }, "geometry": { "type": "Point", "coordinates": [ -123.114398887959524, 49.263248705214608 ] } },
{ "type": "Feature", "properties": { "stop_name": "City Hall", "Direction": "Eastbound" }, "geometry": { "type": "Point", "coordinates": [ -123.114401725003262, 49.263153695926214 ] } },
{ "type": "Feature", "properties": { "stop_name": "VGH", "Direction": "Westbound" }, "geometry": { "type": "Point", "coordinates": [ -123.124481625767885, 49.263414794213233 ] } },
{ "type": "Feature", "properties": { "stop_name": "VGH", "Direction": "Eastbound" }, "geometry": { "type": "Point", "coordinates": [ -123.124485940856005, 49.263307782256355 ] } },
{ "type": "Feature", "properties": { "stop_name": "South Granville", "Direction": "Westbound" }, "geometry": { "type": "Point", "coordinates": [ -123.13826107971714, 49.263645143576646 ] } },
{ "type": "Feature", "properties": { "stop_name": "South Granville", "Direction": "Eastbound" }, "geometry": { "type": "Point", "coordinates": [ -123.138263800611568, 49.263525132119952 ] } },
{ "type": "Feature", "properties": { "stop_name": "Arbutus", "Direction": "Westbound" }, "geometry": { "type": "Point", "coordinates": [ -123.152335823263797, 49.263867557867137 ] } },
{ "type": "Feature", "properties": { "stop_name": "Arbutus", "Direction": "Eastbound" }, "geometry": { "type": "Point", "coordinates": [ -123.152335480786562, 49.263756303215366 ] } },
{ "type": "Feature", "properties": { "stop_name": "VCC-Clark", "Direction": "Westbound" }, "geometry": { "type": "Point", "coordinates": [ -123.079349922694277, 49.265890969947229 ] } },
{ "type": "Feature", "properties": { "stop_name": "VCC-Clark", "Direction": "Eastbound" }, "geometry": { "type": "Point", "coordinates": [ -123.079374802667928, 49.265815692107999 ] } },
{ "type": "Feature", "properties": { "stop_name": "Macdonald", "Direction": "Westbound" }, "geometry": { "type": "Point", "coordinates": [ -123.168189289966477, 49.264136171756419 ] } },
{ "type": "Feature", "properties": { "stop_name": "Macdonald", "Direction": "Eastbound" }, "geometry": { "type": "Point", "coordinates": [ -123.168188914615328, 49.264025732475503 ] } },
{ "type": "Feature", "properties": { "stop_name": "Alma", "Direction": "Westbound" }, "geometry": { "type": "Point", "coordinates": [ -123.185434774590206, 49.264406588067487 ] } },
{ "type": "Feature", "properties": { "stop_name": "Alma", "Direction": "Eastbound" }, "geometry": { "type": "Point", "coordinates": [ -123.185434490073533, 49.264330661136277 ] } },
{ "type": "Feature", "properties": { "stop_name": "Jericho", "Direction": "Westbound" }, "geometry": { "type": "Point", "coordinates": [ -123.198543286401986, 49.266641920225602 ] } },
{ "type": "Feature", "properties": { "stop_name": "Jericho", "Direction": "Eastbound" }, "geometry": { "type": "Point", "coordinates": [ -123.198542815574726, 49.266524578739912 ] } },
{ "type": "Feature", "properties": { "stop_name": "UBC", "Direction": "Eastbound" }, "geometry": { "type": "Point", "coordinates": [ -123.249040714223739, 49.265736520854084 ] } },
{ "type": "Feature", "properties": { "stop_name": "UBC", "Direction": "Westbound" }, "geometry": { "type": "Point", "coordinates": [ -123.249094076212657, 49.265860650686705 ] } },
{ "type": "Feature", "properties": { "stop_name": "Renfrew", "Direction": "Westbound" }, "geometry": { "type": "Point", "coordinates": [ -123.044712754847822, 49.259055811699483 ] } },
{ "type": "Feature", "properties": { "stop_name": "Renfrew", "Direction": "Eastbound" }, "geometry": { "type": "Point", "coordinates": [ -123.044691569390864, 49.258952282527652 ] } },
{ "type": "Feature", "properties": { "stop_name": "Rupert", "Direction": "Eastbound" }, "geometry": { "type": "Point", "coordinates": [ -123.033160687078009, 49.260640375016145 ] } },
{ "type": "Feature", "properties": { "stop_name": "Rupert", "Direction": "Westbound" }, "geometry": { "type": "Point", "coordinates": [ -123.033202916361816, 49.260705936534663 ] } },
{ "type": "Feature", "properties": { "stop_name": "Gilmore", "Direction": "Eastbound" }, "geometry": { "type": "Point", "coordinates": [ -123.013824429729226, 49.264705107424049 ] } },
{ "type": "Feature", "properties": { "stop_name": "Gilmore", "Direction": "Westbound" }, "geometry": { "type": "Point", "coordinates": [ -123.01392225182552, 49.26478210089229 ] } },
{ "type": "Feature", "properties": { "stop_name": "Brentwood", "Direction": "Eastbound" }, "geometry": { "type": "Point", "coordinates": [ -123.001914234305914, 49.266353029899093 ] } },
{ "type": "Feature", "properties": { "stop_name": "Brentwood", "Direction": "Westbound" }, "geometry": { "type": "Point", "coordinates": [ -123.001914237478317, 49.266435035427676 ] } },
{ "type": "Feature", "properties": { "stop_name": "Holdom", "Direction": "Eastbound" }, "geometry": { "type": "Point", "coordinates": [ -122.981553367048718, 49.264639457524687 ] } },
{ "type": "Feature", "properties": { "stop_name": "Holdom", "Direction": "Westbound" }, "geometry": { "type": "Point", "coordinates": [ -122.9815472217131, 49.26472746250343 ] } },
{ "type": "Feature", "properties": { "stop_name": "Sperling", "Direction": "Eastbound" }, "geometry": { "type": "Point", "coordinates": [ -122.963916663509423, 49.259116919155844 ] } },
{ "type": "Feature", "properties": { "stop_name": "Sperling", "Direction": "Westbound" }, "geometry": { "type": "Point", "coordinates": [ -122.963892147586193, 49.259210917955443 ] } },
{ "type": "Feature", "properties": { "stop_name": "Lake City", "Direction": "Eastbound" }, "geometry": { "type": "Point", "coordinates": [ -122.938527686223978, 49.25452188335089 ] } },
{ "type": "Feature", "properties": { "stop_name": "Lake City", "Direction": "Westbound" }, "geometry": { "type": "Point", "coordinates": [ -122.93850924807677, 49.254605879382602 ] } },
{ "type": "Feature", "properties": { "stop_name": "Production", "Direction": "Eastbound" }, "geometry": { "type": "Point", "coordinates": [ -122.918198138170524, 49.253381199367318 ] } },
{ "type": "Feature", "properties": { "stop_name": "Production", "Direction": "Westbound" }, "geometry": { "type": "Point", "coordinates": [ -122.918167450716425, 49.253461183292529 ] } },
{ "type": "Feature", "properties": { "stop_name": "Burquitlam", "Direction": "Eastbound" }, "geometry": { "type": "Point", "coordinates": [ -122.889579068699248, 49.261547958817061 ] } },
{ "type": "Feature", "properties": { "stop_name": "Burquitlam", "Direction": "Westbound" }, "geometry": { "type": "Point", "coordinates": [ -122.889685892695283, 49.2616100651083 ] } },
{ "type": "Feature", "properties": { "stop_name": "Port Moody", "Direction": "Eastbound" }, "geometry": { "type": "Point", "coordinates": [ -122.846008026623252, 49.277962211620775 ] } },
{ "type": "Feature", "properties": { "stop_name": "Port Moody", "Direction": "Westbound" }, "geometry": { "type": "Point", "coordinates": [ -122.846004664417791, 49.278060213601464 ] } },
{ "type": "Feature", "properties": { "stop_name": "Inlet Centre", "Direction": "Eastbound" }, "geometry": { "type": "Point", "coordinates": [ -122.827769512325318, 49.277069408513213 ] } },
{ "type": "Feature", "properties": { "stop_name": "Inlet Centre", "Direction": "Westbound" }, "geometry": { "type": "Point", "coordinates": [ -122.827729429813559, 49.277167355251429 ] } },
{ "type": "Feature", "properties": { "stop_name": "Coquitlam", "Direction": "Eastbound" }, "geometry": { "type": "Point", "coordinates": [ -122.80160233629131, 49.274913755986439 ] } },
{ "type": "Feature", "properties": { "stop_name": "Coquitlam", "Direction": "Westbound" }, "geometry": { "type": "Point", "coordinates": [ -122.801549983980777, 49.275009672461522 ] } },
{ "type": "Feature", "properties": { "stop_name": "Port Coquitlam", "Direction": "Eastbound" }, "geometry": { "type": "Point", "coordinates": [ -122.779414597844763, 49.264723415109337 ] } },
{ "type": "Feature", "properties": { "stop_name": "Port Coquitlam", "Direction": "Westbound" }, "geometry": { "type": "Point", "coordinates": [ -122.779380116182622, 49.264784542470153 ] } },
{ "type": "Feature", "properties": { "stop_name": "Dominion", "Direction": null }, "geometry": { "type": "Point", "coordinates": [ -122.747862640012954, 49.255269434073263 ] } },
{ "type": "Feature", "properties": { "stop_name": "Dominion", "Direction": null }, "geometry": { "type": "Point", "coordinates": [ -122.747954575506782, 49.255126352755028 ] } }
]
}
